[
    {
      "label": "Medical Care",
      "url": "https://211la.org/resources/search?keyword=Healthcare%20%3E%20Medical%20Care%20%281018%29&landing=1&keyword_hidden=Healthcare%20%3E%20Medical%20Care%20%281018%29&website_categorization=1",
      "locations": [
        {
          "name": "Parktree Community Health Center",
          "address": "750 S Park Ave, Pomona, CA 91766",
          "lat": 34.052825,
          "lon": -117.753981,
          "phone": "(909) 630-7196",
          "hours": "8am - 5pm"
        },
        {
          "name": "Rancho Cucamonga VA Clinic",
          "address": "8160 Day Creek Boulevard, Suite 120 Rancho Cucamonga, CA 91739-9329",
          "lat": 34.105259,
          "lon": -117.539093,
          "phone": "(909) 825-7084 x5085",
          "hours": "8am - 4:30pm"
        }
      ]
    },
    {
      "label": "Dental Care",
      "url": "https://211la.org/resources/search?keyword=Healthcare%20%3E%20Dental%20Care%20%28171%29&landing=1&keyword_hidden=Healthcare%20%3E%20Dental%20Care%20%28171%29&website_categorization=1",
      "locations": [
        {
          "name": "Sierra Dental",
          "address": "1301 W Arrow Hwy # 120, San Dimas, CA 91773",
          "lat": 34.10689608557657,
          "lon": -117.83313065146875,
          "phone": "(909) 592-8338",
          "hours": "9am - 5pm"
        },
        {
          "name": "Children's Choice Pediatric Dental Care",
          "address": "641 W Rte 66 Suite E, Glendora, CA 91740",
          "lat": 34.129022989859216,
          "lon": -117.87596740002745,
          "phone": "(626) 914-7645",
          "hours": "9am - 5pm"
        }
      ]
    },
    {
      "label": "Women's Healthcare",
      "url": "https://211la.org/resources/search?keyword=Healthcare%20%3E%20Womens%20Health%20Care%20%281497%29&landing=1&keyword_hidden=Healthcare%20%3E%20Womens%20Health%20Care%20%281497%29&website_categorization=1",
      "locations": [
        {
          "name": "Woodglen Medical Group",
          "address": "315 E Rte 66, Glendora, CA 91740",
          "lat": 34.12922,
          "lon": -117.860739,
          "phone": "(626) 963-4124",
          "hours": "8am - 5pm"
        }
      ]
    },
    {
      "label": "Mental Health/Substance Use Disorder",
      "url": "https://211la.org/resources/search?keyword=Healthcare%20%3E%20Mental%20Health/%20Substance%20Use%20Disorder%20%283240%29&landing=1&keyword_hidden=Healthcare%20%3E%20Mental%20Health/%20Substance%20Use%20Disorder%20%283240%29&website_categorization=1",
      "locations": [
        {
          "name": "Thaddeus Resource Center",
          "address": "2621 Damien Ave La Verne, CA 91750",
          "lat": 34.108229,
          "lon": -117.787987,
          "phone": "(909) 599-2111",
          "hours": "Mon-Fri 9am - 8pm"
        },
        {
          "name": "Tri City Mental Health Center",
          "address": "2008 N Garey Ave, Pomona, CA 91767",
          "lat": 34.08276,
          "lon": -117.752347,
          "phone": "(909) 623-6131",
          "hours": "8am - 5pm"
        },
        {
          "name": "Pacific Clinics",
          "address": "790 E Bonita Ave, Pomona, CA 91767",
          "lat": 34.095627,
          "lon": -117.737271,
          "phone": "(909) 625-7207",
          "hours": "Mon-Fri 9am - 5pm"
        },
        {
          "name": "Ettie Lee Youth & Family Services",
          "address": "160 E Holt Ave #B, Pomona CA, 91767",
          "lat": 34.062265231026736,
          "lon": -117.74896427607543,
          "phone": "(909) 620-2521",
          "hours": "Mon-Fri 8am - 5pm"
        },
        {
          "name": "Stigma Free Therapy Network",
          "address": "157 N Glendora Ave #223, Glendora, CA 91741",
          "lat": 34.13757114499032,
          "lon": -117.86567461165349,
          "phone": "(626) 335-6425",
          "hours": "Open Mon-Sat"
        }
      ]
    },
    {
      "label": "Mental Health Facilities",
      "url": "https://211la.org/resources/search?keyword=Healthcare%20%3E%20Mental%20Health/%20Substance%20Use%20Disorder%20%283240%29&landing=1&keyword_hidden=Healthcare%20%3E%20Mental%20Health/%20Substance%20Use%20Disorder%20%283240%29&website_categorization=1",
      "locations": [
        {
          "name": "Behavioral Health Services",
          "address": "2180 Valley Blvd, Pomona, CA 91768",
          "lat": 34.060674,
          "lon": -117.790636,
          "phone": "(909) 865-2336",
          "hours": "8am - 5pm"
        },
        {
          "name": "Inland Valley Care and Rehab Center",
          "address": "250 W Artesia St, Pomona, CA 91768",
          "lat": 34.077,
          "lon": -117.754672,
          "phone": "(909) 623-7100",
          "hours": "8am - 8pm"
        },
        {
          "name": "Prototypes - Outpatient Behavioral Health Treatment and Community Services Center",
          "address": "1000 N. Alameda St, Ste. 390 Los Angeles, CA 90012",
          "lat": 34.059351,
          "lon": -118.236611,
          "phone": "(213) 542-3838",
          "hours": "Mon-Fri 8am - 5pm"
        }
      ]
    },
    {
      "label": "Screenings/Tests",
      "url": "https://211la.org/resources/search?keyword=Healthcare%20%3E%20Screenings/Tests%20%28904%29&landing=1&keyword_hidden=Healthcare%20%3E%20Screenings/Tests%20%28904%29&website_categorization=1",
      "locations": [
        {
          "name": "Park Avenue Optometry",
          "address": "300 S Park Ave, Pomona, CA 91766",
          "lat": 34.056377,
          "lon": -117.753922,
          "phone": "(909) 622-3531",
          "hours": "9am - 5pm"
        }
      ]
    }
  ]
  